,City,Humidity,Min Temp,Max Temp,Wind Speed,Cloudiness,Date,Country,Sunrise,Sunset,Lat,Lon
0,Killadysert,93,8.0,11.0,3.1,40,1546894800,IE,1546850752,1546879224,52.67,-9.11
1,Baoji,64,-14.43,-14.43,0.81,8,1546895368,CN,1546819084,1546855025,34.36,107.23
2,Yarlykovo,85,-12.0,-11.0,5.0,75,1546893000,RU,1546840337,1546867088,55.28,37.86
3,Vals-pres-le-Puy,78,2.0,2.0,1.16,90,1546893000,FR,1546845733,1546878002,45.03,3.88
4,Wald im Pinzgau,97,1.0,1.0,0.5,75,1546894200,AT,1546844213,1546875514,47.25,12.23
5,Guagua,83,22.0,25.0,2.1,75,1546891200,PH,1546813514,1546854154,14.97,120.63
6,Willanzheim,99,1.0,3.0,5.1,90,1546894560,DE,1546845281,1546875407,49.68,10.23
7,Loíza Municipio,74,26.0,27.2,7.7,40,1546890960,PR,1546858656,1546898570,18.43,-65.89
8,Unanu Municipality,100,26.7,26.7,7.76,88,1546895369,FM,1546805744,1546847657,8.75,150.34
9,Negenborn,93,6.0,7.0,8.7,90,1546894200,DE,1546846220,1546874758,52.55,9.63
10,Buadiposo-Buntong,96,14.48,14.48,0.91,8,1546895370,PH,1546811897,1546853968,7.96,124.38
11,Cangas,100,7.0,7.0,3.1,0,1546893000,ES,1546848226,1546881587,42.26,-8.78
12,Penamacor,57,-0.28,-0.28,3.61,0,1546895370,PT,1546847464,1546881575,40.17,-7.17
13,Casalbordino,86,5.0,5.0,2.1,75,1546890600,IT,1546842595,1546875992,42.15,14.6
14,Tlapa de Comonfort,31,26.15,26.15,1.11,24,1546895371,MX,1546866407,1546906514,17.54,-98.58
15,Arrondissement de Vienne,69,2.0,4.0,1.5,90,1546893000,FR,1546845563,1546877634,45.5,5.0
16,Ochamchire,100,5.6,5.6,2.11,48,1546895371,GE,1546836252,1546869433,42.71,41.47
17,Insel,93,8.0,8.0,9.8,92,1546894200,DE,1546846489,1546874455,53.48,9.7
18,Villaviciosa de Cordoba,86,3.0,3.0,2.01,0,1546893000,ES,1546846597,1546881409,38.08,-5.02
19,Gallmersgarten,99,1.0,3.0,5.1,90,1546894560,DE,1546845213,1546875451,49.46,10.28
20,Pleasant Grove,69,0.0,3.9,9.8,90,1546893300,US,1546872591,1546906656,40.36,-111.74
21,Turhal,92,-5.0,-5.0,2.6,75,1546894200,TR,1546837121,1546871152,40.38,36.08
22,Hirel,76,8.0,9.0,4.1,90,1546893000,FR,1546847900,1546878564,48.61,-1.8
23,Arcins,93,5.0,6.0,1.0,90,1546893000,FR,1546846848,1546879101,45.07,-0.73
24,Charraix,78,-10.85,-10.85,1.16,44,1546895373,FR,1546845808,1546878076,45.03,3.57
25,Antigua Ocotepeque,37,30.0,30.0,2.1,20,1546890600,HN,1546863823,1546904593,14.4,-89.2
26,Bichl,82,-10.5,-10.5,0.76,0,1546895374,AT,1546844082,1546875501,46.99,12.53
27,Dalmatovo,72,-17.3,-17.3,4.21,0,1546895374,RU,1546834681,1546860702,56.26,62.94
28,Grashevo,100,-15.5,-15.5,0.76,12,1546895374,BG,1546840323,1546873789,41.96,23.92
29,Heighington,70,8.0,9.0,7.2,20,1546894200,GB,1546848842,1546876981,53.21,-0.46
30,Contrecoeur,51,-12.0,-11.0,2.1,75,1546891200,CA,1546864410,1546896350,45.85,-73.23
31,Ahuatepec,10,26.0,26.0,5.1,40,1546893960,MX,1546866391,1546906213,18.86,-97.92
32,Kasimovo,83,-20.0,-20.0,3.0,90,1546893000,RU,1546835734,1546862861,54.73,56.25
33,Mogadouro,81,-5.0,-5.0,1.56,0,1546895375,PT,1546847560,1546881258,41.34,-6.71
34,Charlestown,25,-3.3,0.6,2.6,75,1546894260,US,1546863149,1546896845,41.38,-71.64
35,Ash Shahil,92,16.2,16.2,1.11,8,1546895376,YE,1546832148,1546872602,15.87,43.4
36,Gourbesville,76,10.0,10.0,9.3,90,1546894200,FR,1546848008,1546878269,49.42,-1.41
37,Sankt Johann am Tauern,100,-1.0,-1.0,2.1,68,1546894200,AT,1546843701,1546874951,47.36,14.47
38,Province of Eastern Samar,90,23.98,23.98,5.71,64,1546895376,PH,1546812003,1546853326,11.67,125.5
39,Shibukawa,83,-6.9,-6.9,0.51,48,1546895376,JP,1546811782,1546847073,36.5,139.0
40,Dimos Livadeia,100,0.0,0.0,2.21,75,1546894200,GR,1546839964,1546874665,38.41,22.84
41,Combarro,100,5.0,7.0,3.1,0,1546893000,ES,1546848241,1546881538,42.43,-8.71
42,Campillo de Aranda,74,-6.5,-6.5,1.06,0,1546895377,ES,1546846894,1546880493,41.61,-3.73
43,Bayles,75,6.0,7.0,9.8,0,1546894200,GB,1546849842,1546876942,54.8,-2.46
44,Somosierra,74,-6.5,-6.5,1.06,0,1546895377,ES,1546846771,1546880544,41.13,-3.58
45,Villa Serrano,94,19.75,19.75,1.31,88,1546895378,BO,1546854436,1546902022,-19.12,-64.32
46,Saint-Léger,93,5.0,6.0,1.0,90,1546893000,FR,1546846745,1546878834,45.46,0.04
47,Malpils,100,-3.0,-3.0,4.6,90,1546892400,LV,1546844085,1546869534,57.01,24.96
48,Ypsilanti,64,2.2,6.5,7.2,90,1546894380,US,1546866179,1546899562,42.24,-83.61
49,Villas Agrícolas Número Dos,65,28.0,29.0,6.2,40,1546894800,DO,1546859636,1546899539,18.48,-69.95
50,Frörup,93,7.0,8.0,13.9,40,1546894200,DE,1546846952,1546874123,54.69,9.43
51,Villarroya de los Pinares,93,5.0,5.0,0.5,0,1546893000,ES,1546845967,1546879952,40.53,-0.67
52,Jobbagyi,100,-13.0,-13.0,0.5,8,1546893000,HU,1546842560,1546873590,47.83,19.68
53,Brindas,69,2.0,4.0,1.5,90,1546893000,FR,1546845684,1546877662,45.72,4.69
54,Wischroda,86,4.0,5.0,9.3,75,1546894200,DE,1546845359,1546874696,51.16,11.55
55,Krajan Kedungsari,100,23.1,23.1,1.51,88,1546895435,ID,1546813659,1546858607,-6.57,111.04
56,Fuchsstadt,99,1.0,2.6,5.1,90,1546894560,DE,1546845349,1546875465,49.7,9.97
57,Dmitriyevy Gory,82,-13.4,-13.4,4.36,64,1546895436,RU,1546839370,1546866168,55.21,41.79
58,Diego de Almagro,42,23.85,23.85,2.31,0,1546895436,CL,1546854941,1546904265,-26.39,-70.05
59,Bosque Farms,52,5.0,7.2,2.1,20,1546894020,US,1546870501,1546906329,34.85,-106.71
60,Alnashi,78,-16.78,-16.78,4.21,48,1546895436,RU,1546837160,1546863246,56.18,52.48
61,Oberkail,100,3.0,4.0,5.1,90,1546894560,DE,1546846226,1546876167,50.04,6.68
62,Jastrzebie Zdroj,79,-7.0,-4.0,3.6,64,1546894800,PL,1546843353,1546873332,49.96,18.57
63,Zacualtipan,40,22.2,22.2,1.26,0,1546895437,MX,1546866752,1546906180,20.65,-98.6
64,Cameirán,79,21.4,21.4,2.66,48,1546895437,VE,1546856255,1546898796,5.62,-61.37
65,San Michele al Tagliamento,74,3.0,4.0,0.5,75,1546894200,IT,1546843699,1546875658,45.76,13.0
66,Gava,86,1.0,1.0,1.5,0,1546894200,IT,1546844935,1546877086,45.31,7.45
67,Dolupo,100,21.1,21.1,0.16,76,1546895438,ID,1546811626,1546855725,-2.3,121.28
68,Ivouani,97,28.25,28.25,3.41,44,1546895438,KM,1546829409,1546875337,-11.39,43.39
69,Mikkeli,100,-2.0,-2.0,2.1,90,1546894200,FI,1546845844,1546866670,61.69,27.27
70,Capriglio,86,1.0,1.0,1.5,0,1546894200,IT,1546844736,1546877016,45.0,8.01
71,Valverde del Majano,77,-7.75,-7.75,1.01,0,1546895439,ES,1546846897,1546880731,40.96,-4.23
72,Arft,100,3.0,7.0,5.1,90,1546894560,DE,1546846220,1546875981,50.38,7.08
73,Vezin-le-Coquet,93,8.0,9.0,3.1,90,1546893000,FR,1546847771,1546878669,48.12,-1.75
74,Melarde,75,6.0,6.0,2.6,20,1546893000,ES,1546847602,1546880550,43.34,-5.32
75,Grovedale,82,18.0,18.0,3.1,90,1546893000,AU,1546801713,1546854552,-38.2,144.33
76,Magsalangi,95,25.18,25.18,7.61,8,1546895440,PH,1546812519,1546853737,12.18,123.57
77,Saint-Georges-de-Didonne,93,6.0,7.0,2.21,90,1546893000,FR,1546847022,1546879052,45.6,-0.99
78,Villanueva,78,23.08,23.08,0.71,48,1546895440,CO,1546858931,1546901670,4.61,-72.93
79,Provincia de El Seíbo,58,28.0,29.0,7.2,40,1546894800,DO,1546859455,1546899288,18.8,-69.05
80,Tabunok,88,25.0,25.0,2.6,90,1546891200,PH,1546812268,1546853771,10.78,124.02
81,Gültz,93,6.0,6.0,4.6,75,1546892400,DE,1546845741,1546873533,53.75,13.18
82,Cabildo,68,19.0,19.0,7.2,40,1546891200,CL,1546854361,1546905331,-32.43,-71.07
83,Panhandle,17,17.2,18.1,7.2,1,1546894500,US,1546869296,1546904975,35.35,-101.38
84,Valdetorres,86,4.0,4.0,1.0,0,1546891200,ES,1546846987,1546881523,38.92,-6.07
85,Neuenwalde,93,8.0,8.0,10.8,75,1546893660,DE,1546846798,1546874637,53.68,8.68
86,Valbert,93,6.0,7.0,8.7,90,1546894200,DE,1546846260,1546875620,51.12,7.75
87,Shirakamut,73,-5.0,-5.0,0.5,20,1546893000,AM,1546835265,1546869128,40.85,44.16
88,Komuna e Dragashit,78,-21.3,-21.3,1.06,0,1546895443,XK,1546841115,1546874567,42.0,20.65
89,Kampungsawah Landeuh,100,25.7,25.7,1.26,32,1546895443,ID,1546814899,1546859782,-6.25,106.01
90,Si Rattana,83,22.0,22.0,1.5,64,1546891200,TH,1546817374,1546858053,14.79,104.47
91,Grande-Synthe,87,9.0,10.0,9.8,75,1546894200,FR,1546847537,1546876960,51.01,2.3
92,Levelek,78,-8.0,-8.0,1.5,0,1546892100,HU,1546842039,1546873002,47.97,21.99
93,Antran,93,6.0,6.0,1.0,90,1546893000,FR,1546846928,1546878412,46.85,0.54
94,Zambujeira do Mar,100,12.05,12.05,3.91,0,1546895445,PT,1546847409,1546882402,37.52,-8.78
95,Ciudad Anahuac,73,22.0,22.0,5.81,90,1546893660,MX,1546867897,1546905781,27.23,-100.15
96,Sandia Heights,52,1.7,7.2,2.1,20,1546894020,US,1546870497,1546906228,35.18,-106.49
97,Kilpin,26,19.1,19.1,4.76,8,1546895445,NG,1546839650,1546881174,10.7,9.92
98,Desa Wetan Ciakar,99,21.5,21.5,1.06,48,1546895445,ID,1546814240,1546859313,-7.19,108.36
99,Mission,51,27.2,28.9,5.7,75,1546894500,US,1546867336,1546905468,26.22,-98.33
100,Linevo,75,-17.83,-17.83,1.31,32,1546895446,RU,1546837300,1546866781,50.88,44.82
101,Steindamm,93,6.0,6.0,4.6,75,1546892400,DE,1546845742,1546873796,53.34,12.63
102,Landover Hills,46,1.0,3.9,3.6,90,1546894560,US,1546863986,1546898528,38.94,-76.89
103,Hjerting,93,6.0,8.0,7.7,80,1546894200,DK,1546847290,1546873973,55.39,9.04
104,Bliederstedt,86,4.0,4.0,9.3,75,1546894200,DE,1546845555,1546874832,51.27,10.86
105,Meierndorf,99,1.0,3.0,6.2,90,1546894560,DE,1546845080,1546875479,49.14,10.5
106,Sadirac,93,5.0,6.0,1.0,90,1546893000,FR,1546846711,1546879084,44.78,-0.41
107,Bardo,89,0.0,0.0,2.6,75,1546894800,PL,1546843937,1546873626,50.51,16.74
108,Seminole,17,17.0,19.6,6.7,1,1546894500,US,1546869218,1546905658,32.72,-102.64
109,Bezirk Stein,100,1.0,2.0,1.0,75,1546894200,CH,1546845119,1546876231,47.66,8.85
110,Murmanskaya Oblast’,84,-14.25,-14.25,1.11,44,1546895504,RU,1546851350,1546857938,68.0,34.0
111,Karrapur,82,8.58,8.58,2.66,0,1546895504,IN,1546824533,1546863198,23.92,78.85
112,Brax,97,4.0,4.0,5.7,90,1546893000,FR,1546846082,1546878920,43.62,1.24
113,Caldwell,40,3.9,6.1,5.1,1,1546894560,US,1546874391,1546907235,43.67,-116.69
114,Essingen,80,1.0,2.0,3.6,75,1546894200,DE,1546845111,1546875673,48.81,10.03
115,La Clarita,61,19.0,25.0,6.2,75,1546891200,CO,1546859741,1546902191,6.08,-75.7
116,Forge d'en Haut,93,6.0,8.0,8.7,75,1546894200,BE,1546846734,1546876523,50.33,4.88
117,Killingsworth Crossroads,43,18.0,21.7,3.6,1,1546894560,US,1546865065,1546902041,30.75,-86.46
118,Montegrino Valtravaglia,100,-2.0,-2.0,3.1,0,1546894200,IT,1546844759,1546876629,45.97,8.77
119,Vose,35,17.0,22.0,7.7,1,1546894500,US,1546865182,1546900725,35.79,-83.96
120,Ocland,79,-16.05,-16.05,1.26,20,1546895506,RO,1546840803,1546872586,46.16,25.43
121,Mount Joy,46,-1.4,0.0,4.6,90,1546894560,US,1546864091,1546898236,40.11,-76.5
122,Catadau,93,6.0,7.0,2.1,20,1546893000,ES,1546845726,1546880144,39.27,-0.57
123,Barchem,100,8.0,8.0,7.2,75,1546894500,NL,1546846861,1546875649,52.13,6.44
124,Sumurgung,99,22.23,22.23,1.96,48,1546895506,ID,1546813369,1546858388,-6.92,112.1
125,Ederbringhausen,100,4.0,6.0,8.7,90,1546894200,DE,1546845994,1546875349,51.13,8.87
126,Aleksandrów Łódzki,79,-5.0,-5.0,2.6,20,1546894800,PL,1546843686,1546872649,51.82,19.3
127,Cametours,87,10.0,10.0,9.8,75,1546894200,FR,1546847889,1546878326,49.07,-1.28
128,Albosaggia,92,-11.0,1.0,1.5,75,1546894200,IT,1546844539,1546876330,46.15,9.85
129,Ketovo,45,-21.83,-21.83,2.31,0,1546895508,RU,1546833772,1546860463,55.35,65.33
130,Adanero,73,-7.6,-7.6,1.01,0,1546895508,ES,1546846982,1546880823,40.94,-4.6
131,Fontenay-sous-Bois,87,6.0,8.0,5.1,90,1546893000,FR,1546846935,1546877479,48.85,2.47
132,Hernando,83,15.0,17.0,6.2,90,1546894500,US,1546866484,1546902318,34.82,-89.99
133,Talegaon Dabhade,79,9.25,9.25,1.36,0,1546895509,IN,1546825171,1546865008,18.74,73.75
134,Bojaca,59,19.0,19.0,6.7,40,1546891200,CO,1546859281,1546901997,4.73,-74.34
135,Hohenfelde,93,8.0,8.0,7.7,75,1546894200,DE,1546846438,1546874353,53.56,10.02
136,La Salvetat-Saint-Gilles,97,4.0,4.0,5.7,90,1546893000,FR,1546846067,1546878921,43.58,1.27
137,Stadecken-Elsheim,75,3.0,4.1,4.1,90,1546894560,DE,1546845847,1546875855,49.91,8.12
138,Orituco,39,32.25,32.25,5.51,24,1546895510,VE,1546857853,1546899644,9.39,-66.46
139,Fraisses,86,2.0,4.0,1.21,90,1546893000,FR,1546845715,1546877833,45.39,4.27
140,Marion County,100,10.0,12.1,6.7,90,1546894560,US,1546866351,1546900615,39.77,-86.16
141,Masiga,100,25.5,25.5,7.66,0,1546895510,PH,1546813058,1546854033,13.36,121.83
142,Ciampea,83,25.0,25.0,2.6,20,1546893000,ID,1546814703,1546859647,-6.55,106.7
143,Whittlesea,82,17.0,18.0,3.1,75,1546893000,AU,1546801642,1546854245,-37.51,145.12
144,Sivaki,68,-26.43,-26.43,1.61,0,1546895511,RU,1546818145,1546846599,52.63,126.75
145,Hohen-Sülzen,93,4.0,4.1,4.6,75,1546894560,DE,1546845748,1546875905,49.62,8.22
146,Saint-Ouen-en-Belin,87,6.0,8.0,2.6,90,1546893000,FR,1546847232,1546878267,47.83,0.21
147,Venustiano Carranza,23,21.0,28.0,5.1,75,1546894080,MX,1546866738,1546906438,19.42,-99.11
148,Rietdorf,93,5.0,5.0,7.7,75,1546894200,DE,1546845123,1546874054,51.88,13.38
149,Zwingen,80,-3.0,3.0,2.1,90,1546894200,CH,1546845385,1546876599,47.44,7.53
150,Kemmern,97,2.6,3.0,4.1,75,1546894560,DE,1546845197,1546875184,49.95,10.87
151,Longuesaigne,75,-11.25,-11.25,1.21,20,1546895512,FR,1546845881,1546878137,45.06,3.29
152,Banaba,78,25.0,25.0,5.71,20,1546891200,PH,1546813368,1546854069,14.68,121.11
153,Liberty,52,12.8,15.0,6.2,90,1546894560,US,1546866033,1546900341,39.64,-84.93
154,Liceia,81,7.0,7.0,1.5,0,1546891200,PT,1546847849,1546881934,40.25,-8.72
155,Hongjiang,100,1.33,1.33,1.86,92,1546895513,CN,1546817496,1546855362,27.21,109.83
156,Appomattox,52,5.6,7.1,3.1,1,1546894500,US,1546864194,1546899250,37.36,-78.83
157,Tỉnh Vĩnh Phúc,100,17.0,17.0,3.6,75,1546893000,VN,1546817810,1546857076,21.3,105.6
158,Litzelsdorf,92,-3.0,-3.0,0.5,75,1546894200,AT,1546843261,1546874579,47.21,16.16
159,Ruber,100,3.0,6.0,7.7,75,1546894560,DE,1546846129,1546875933,50.3,7.37
160,Etzelwang,95,2.2,3.0,3.1,90,1546894560,DE,1546844917,1546875119,49.53,11.59
161,Montaigu-de-Quercy,93,3.0,5.0,2.6,90,1546893000,FR,1546846278,1546878830,44.34,1.02
162,Yaguate,65,28.0,29.0,6.2,40,1546894800,DO,1546859676,1546899609,18.34,-70.18
163,Dzuiché,34,30.4,30.4,1.66,0,1546895570,MX,1546864316,1546903910,19.9,-88.8
164,Perponda,83,16.15,16.15,3.11,44,1546895570,AU,1546803330,1546855104,-34.98,139.82
165,Shida Kartli,100,-10.4,-10.4,0.56,68,1546895570,GE,1546835538,1546868866,42.32,44.14
166,Tanjungrejo Lor,100,24.83,24.83,0.76,44,1546895570,ID,1546812942,1546858233,-8.27,113.31
167,Oregon,96,9.6,12.0,6.2,90,1546894500,US,1546867509,1546900979,42.01,-89.33
168,Torrecilla del Monte,81,0.0,0.0,10.3,0,1546893000,ES,1546846973,1546880396,42.09,-3.69
169,Mers El Kebir,93,6.0,7.0,1.5,0,1546893000,DZ,1546845193,1546880742,35.73,-0.71
170,Zarumaurcu,70,29.0,29.0,3.6,40,1546891200,EC,1546859729,1546904096,-3.67,-79.65
171,Provincia di Napoli,65,-2.0,9.0,2.1,20,1546894200,IT,1546842407,1546876266,40.88,14.42
172,Heusweiler,100,2.0,4.0,5.7,75,1546894200,DE,1546845987,1546876286,49.34,6.93
173,Mabilang,83,23.0,23.0,2.1,75,1546891200,PH,1546813623,1546854113,15.68,120.49
174,Annaka,73,-12.08,-12.08,0.76,44,1546895572,JP,1546811812,1546847153,36.34,138.77
175,Pozzo dAdda,86,-2.0,3.0,2.1,0,1546894200,IT,1546844498,1546876539,45.57,9.5
176,Wattala,83,24.0,24.0,3.6,0,1546891800,LK,1546822480,1546864746,6.99,79.89
177,Albendiego,68,-6.1,-6.1,0.51,0,1546895573,ES,1546846662,1546880399,41.23,-3.05
178,Maron,93,3.0,4.0,4.6,90,1546893000,FR,1546846024,1546876671,48.64,6.05
179,San Carlos de Bariloche,50,13.0,13.0,13.9,75,1546891200,AR,1546852966,1546906834,-41.13,-71.31
180,Ryczow,79,-7.0,-6.0,1.0,24,1546894800,PL,1546843123,1546873091,49.98,19.55
181,Gonfaron,65,5.0,7.0,3.1,0,1546893000,FR,1546844812,1546877766,43.32,6.29
182,Doneztebe/Santesteban,75,3.0,6.0,0.11,90,1546893000,ES,1546846685,1546879714,43.13,-1.67
183,Városrétidűlő,92,-13.0,-12.0,1.0,20,1546893900,HU,1546842544,1546873966,46.98,18.93
184,Province of Tawi-Tawi,99,28.18,28.18,5.01,20,1546895575,PH,1546812668,1546855286,5.21,120.03
185,Enna,81,9.0,9.0,4.6,20,1546890900,IT,1546841883,1546876856,37.57,14.28
186,Vic-en-Bigorre,74,2.0,4.0,4.6,90,1546893000,FR,1546846323,1546879251,43.39,0.05
187,Rich Hill,33,17.0,18.0,5.1,1,1546894500,US,1546868040,1546902862,38.1,-94.36
188,Morrisville,52,7.1,13.2,4.1,75,1546894440,US,1546863955,1546899489,35.82,-78.83
189,Palminópolis,89,23.95,23.95,0.96,56,1546895576,BR,1546851298,1546898368,-16.79,-50.17
190,Juanacatlan,31,26.0,26.0,2.6,75,1546894140,MX,1546867834,1546907292,20.52,-103.17
191,Zlutice,95,1.0,4.0,5.1,90,1546891200,CZ,1546844684,1546874598,50.09,13.16
192,Santa Clara,62,26.0,29.0,4.1,40,1546894200,CU,1546862479,1546901508,22.41,-79.97
193,Skikda,97,6.2,6.2,2.06,8,1546895577,DZ,1546843542,1546878735,36.88,6.91
194,Xitang,100,2.68,2.68,1.01,92,1546895577,CN,1546816634,1546855042,24.99,112.29
195,Ortigosa del Monte,55,4.0,4.0,3.1,0,1546893000,ES,1546846864,1546880740,40.84,-4.18
196,Wolferbutt,86,4.0,4.0,9.3,75,1546894200,DE,1546845612,1546875164,50.77,10.05
197,Pozo de Guadalajara,55,4.0,10.0,3.1,0,1546893000,ES,1546846564,1546880560,40.5,-3.18
198,Silillos,86,3.0,3.0,2.41,0,1546893000,ES,1546846560,1546881499,37.69,-5.13
199,Lander,36,2.2,2.2,6.7,40,1546890780,US,1546872318,1546905485,42.83,-108.73
200,Ramsen,92,1.0,2.0,1.0,75,1546894200,CH,1546845140,1546876229,47.71,8.81
201,Jiaan,66,-9.43,-9.43,0.81,80,1546895579,CN,1546819287,1546855546,33.26,105.72
202,Gensac,93,5.0,6.0,2.6,90,1546893000,FR,1546846602,1546878963,44.81,0.07
203,Plains,84,-7.2,-7.2,3.6,90,1546894380,US,1546874761,1546905997,47.46,-114.88
204,Priobye,87,-18.0,-18.0,1.21,44,1546895579,RU,1546837198,1546856889,62.55,65.65
205,Castilforte,74,-3.95,-3.95,2.01,0,1546895635,ES,1546846394,1546880369,40.56,-2.43
206,Raisting,80,0.0,2.0,4.1,92,1546894200,DE,1546844635,1546875630,47.91,11.11
207,La Concordia,64,24.0,24.0,2.1,40,1546894800,NI,1546862972,1546903990,13.2,-86.17
208,Bischheim,86,3.0,4.0,5.7,90,1546894200,FR,1546845609,1546876270,48.61,7.75
209,Saint-Laurent-des-Arbres,60,5.0,5.0,11.3,0,1546893000,FR,1546845337,1546878004,44.05,4.7
210,Vesëlyy,92,-6.0,-6.0,8.0,75,1546893000,RU,1546837601,1546868798,47.46,39.99
211,Občina Tolmin,74,-4.0,3.0,0.5,75,1546894200,SI,1546843615,1546875392,46.18,13.73
212,Massenhausen,96,1.0,2.0,5.1,90,1546894200,DE,1546844613,1546875398,48.35,11.64
213,Kroppen,93,4.0,5.0,4.6,75,1546894200,DE,1546844883,1546874097,51.38,13.79
214,Cotagaita,90,25.58,25.58,2.36,0,1546895637,AR,1546852417,1546902954,-30.92,-62.07
215,Cheongju,58,-8.9,-1.0,2.6,75,1546894800,KR,1546814566,1546849815,36.64,127.49
216,Canton Valley,28,-2.4,0.0,4.1,75,1546894380,US,1546863531,1546897064,41.83,-72.89
217,Landscheide,87,8.0,8.0,8.2,75,1546894200,DE,1546846736,1546874421,53.92,9.26
218,Romainmôtier-Envy,80,-3.0,3.0,1.0,90,1546894200,CH,1546845471,1546877026,46.69,6.46
219,Shumanay Shahri,93,2.0,2.0,3.1,90,1546893000,UZ,1546832047,1546865255,42.63,58.93
220,Haaren,100,7.0,8.0,7.2,75,1546894500,BE,1546846561,1546876097,50.8,6.13
221,Brindisi,52,3.0,6.0,8.7,40,1546894200,IT,1546841518,1546875465,40.63,17.94
222,Saint-Jean-d'Heurs,69,3.0,3.0,1.0,90,1546893000,FR,1546846003,1546877939,45.82,3.45
223,Plumelin,75,8.0,8.0,3.1,90,1546893000,FR,1546847983,1546879005,47.86,-2.89
224,Filomeno Mata,54,28.0,28.0,2.1,20,1546893960,MX,1546866486,1546906014,20.2,-97.7
225,Kerewan,56,23.0,23.0,1.5,0,1546891200,GM,1546846179,1546887134,13.49,-16.09
226,Tha Chana,86,25.45,25.45,2.86,92,1546895639,TH,1546818111,1546859860,9.57,99.17
227,Angol,40,23.0,23.0,9.3,75,1546891200,CL,1546853906,1546906569,-37.8,-72.71
228,Sharbulag,42,-34.0,-34.0,1.21,24,1546895640,MN,1546825181,1546855717,48.82,93.1
229,Köddingen,93,4.0,4.0,6.7,75,1546892400,DE,1546845773,1546875406,50.62,9.21
230,Preston,81,7.0,9.0,7.7,40,1546894200,GB,1546849556,1546877348,53.76,-2.71
231,Manningtree,76,9.6,11.0,7.2,75,1546894560,GB,1546848096,1546876996,51.94,1.06
232,Fermoselle,81,-5.0,-5.0,1.56,0,1546895641,ES,1546847480,1546881185,41.32,-6.39
233,Obshtina Madzharovo,91,-6.25,-6.25,4.11,8,1546895641,BG,1546839797,1546873365,41.68,25.9
234,Bobenthal,86,2.0,4.0,5.7,90,1546894200,DE,1546845693,1546876133,49.06,7.86
235,Franqueville-Saint-Pierre,93,8.0,8.0,5.1,90,1546893000,FR,1546847381,1546877652,49.4,1.18
236,Schriesheim,93,4.0,4.1,4.6,75,1546894560,DE,1546845607,1546875836,49.48,8.66
237,Teabo,38,29.58,29.58,1.81,0,1546895642,MX,1546864487,1546903970,20.4,-89.28
238,Gondorf,100,3.0,4.0,5.1,90,1546894560,DE,1546846222,1546876200,49.97,6.62
239,Peicheng,87,-3.33,-3.33,1.21,44,1546895642,CN,1546816814,1546852642,34.74,116.92
240,Wassu,30,25.43,25.43,5.21,88,1546895643,GM,1546845909,1546886823,13.69,-14.88
241,Galve,93,5.0,5.0,0.5,0,1546893000,ES,1546846040,1546879979,40.66,-0.88
242,Langtad,88,25.0,25.0,2.1,90,1546894800,PH,1546812278,1546853901,10.19,123.73
243,Toury,93,6.0,7.0,4.6,90,1546893000,FR,1546846904,1546877764,48.2,1.94
244,Zhongdacuo,94,19.0,20.0,3.1,75,1546894800,TW,1546814416,1546853389,22.58,120.35
245,Hopewell,55,5.5,7.8,3.1,1,1546894560,US,1546863815,1546898890,37.3,-77.29
246,San Isidro,92,19.83,19.83,0.96,88,1546895646,PH,1546813462,1546853727,16.74,121.63
247,Ust-Katav,85,-14.3,-14.3,2.16,48,1546895646,RU,1546835345,1546862328,54.94,58.17
248,Banjar Ponggang,88,26.0,26.0,1.0,20,1546893000,ID,1546812462,1546857777,-8.39,115.26
249,Oryakhovo,85,-8.0,-8.0,3.6,0,1546893000,BG,1546840649,1546873440,43.73,23.97
250,Redziny,79,-7.0,-7.0,3.6,32,1546894800,PL,1546843436,1546872936,50.86,19.22
251,Vix,93,7.0,7.0,1.26,90,1546893000,FR,1546847155,1546878857,46.36,-0.86
252,Palermo,49,32.0,32.0,3.6,40,1546891200,CO,1546859362,1546902439,2.89,-75.43
253,Hörsching,86,3.0,3.0,6.7,75,1546894200,AT,1546843974,1546874817,48.23,14.18
254,Takhatpur,66,11.45,11.45,3.11,0,1546895647,IN,1546823601,1546862680,22.13,81.87
255,Vendenheim,86,3.0,4.0,5.7,90,1546894200,FR,1546845633,1546876265,48.67,7.71
256,Bald Knob,80,16.1,17.7,6.7,75,1546894560,US,1546866936,1546902625,35.31,-91.57
257,Capinha,57,-0.28,-0.28,3.61,0,1546895703,PT,1546847519,1546881621,40.2,-7.38
258,Rettenegg,92,-3.0,-3.0,0.5,75,1546894200,AT,1546843426,1546874597,47.53,15.78
259,Sternenfels,80,2.0,4.0,3.6,75,1546894200,DE,1546845453,1546875898,49.05,8.85
260,Benton,77,17.7,19.0,4.1,90,1546894500,US,1546867070,1546902981,34.56,-92.59
261,Mogok,99,14.7,14.7,0.86,92,1546895705,MM,1546820178,1546859074,22.92,96.51
262,Gosnay,87,8.0,10.0,8.2,90,1546893000,FR,1546847332,1546877026,50.51,2.59
263,Esquerdes,93,10.0,10.0,4.6,90,1546893000,FR,1546847484,1546877070,50.71,2.18
264,Hardin County,69,12.6,17.2,6.7,90,1546895700,US,1546865962,1546900911,37.7,-85.97
265,Triuggio,100,-2.0,1.0,1.0,0,1546894200,IT,1546844573,1546876575,45.66,9.27
266,La Peyratte,93,6.0,6.0,1.0,90,1546893000,FR,1546847053,1546878618,46.67,-0.15
267,Los Blancos,69,26.0,26.0,2.6,40,1546894800,AR,1546854058,1546902825,-24.16,-65.21
268,DuPage County,92,10.5,12.7,7.2,90,1546894380,US,1546867176,1546900712,41.83,-88.08
269,Baarleveld,93,8.0,10.0,13.4,92,1546894500,BE,1546847234,1546876634,51.05,3.61
270,Bugel,100,26.18,26.18,3.96,12,1546895707,ID,1546813740,1546858708,-6.67,110.66
271,Vergel,52,25.3,25.3,1.06,92,1546895707,MX,1546866087,1546906349,16.82,-97.57
272,Poselki,74,-16.18,-16.18,2.96,48,1546895708,RU,1546837551,1546865725,53.13,46.5
273,Zoumi,85,2.18,2.18,1.06,0,1546895708,MA,1546846165,1546881993,34.8,-5.34
274,Martinesti,74,-15.95,-15.95,0.91,0,1546895708,RO,1546841281,1546873212,45.82,23.13
275,Vissum,97,5.05,5.05,8.81,92,1546895708,DE,1546845886,1546874261,52.82,11.36
276,Lubuklinggau,98,21.95,21.95,1.16,80,1546895708,ID,1546815948,1546860242,-3.29,102.87
277,Saint-Martin-Lacaussade,93,6.0,6.0,1.0,90,1546893000,FR,1546846843,1546879063,45.15,-0.64
278,Canmaya Diot,88,25.0,25.0,2.1,90,1546894800,PH,1546812166,1546853840,9.94,124.09
279,New Pandanon,90,23.85,23.85,6.31,88,1546895709,PH,1546812454,1546854003,10.56,123.15
280,Polsingen,99,1.2,3.0,6.2,90,1546894560,DE,1546844975,1546875483,48.92,10.71
281,Vouilly,81,10.0,10.0,6.2,90,1546893000,FR,1546847884,1546878211,49.29,-1.03
282,Altay,47,-29.0,-29.0,0.96,0,1546895710,CN,1546826136,1546857149,47.83,88.13
283,San Carlos,40,32.43,32.43,3.01,80,1546895710,VE,1546858391,1546900128,9.66,-68.59
284,El Olivar,51,4.0,4.0,4.6,0,1546891200,ES,1546846480,1546880437,40.61,-2.75
285,Lisbon Falls,31,-7.2,-3.9,4.1,1,1546894380,US,1546863267,1546895970,44.0,-70.06
286,Moana,77,16.0,16.0,6.2,20,1546893000,AU,1546803619,1546855462,-35.2,138.47
287,Fantanele,100,-12.0,-12.0,1.0,0,1546893000,RO,1546841761,1546873563,46.12,21.4
288,Bammental,93,4.0,4.0,4.6,75,1546894200,DE,1546845548,1546875837,49.36,8.78
289,Altenriet,80,1.0,2.0,3.6,75,1546894200,DE,1546845251,1546875922,48.59,9.22
290,Vale da Pinta,30,3.0,13.0,1.5,0,1546893000,PT,1546847691,1546882145,39.17,-8.83
291,Edderton,81,7.0,8.0,9.8,40,1546894200,GB,1546851413,1546876194,57.83,-4.17
292,Valmacca,100,-2.0,-1.0,3.1,0,1546894200,IT,1546844620,1546876859,45.1,8.58
293,Hualingang,100,7.05,7.05,6.46,56,1546895712,CN,1546816039,1546853525,28.71,116.69
294,Cayenne,74,27.0,27.0,6.2,90,1546893000,GF,1546854018,1546896692,4.94,-52.33
295,Bellosguardo,92,-2.0,-2.0,4.1,90,1546890900,IT,1546842112,1546876133,40.42,15.31
296,Zonguldak,100,-1.7,-1.7,2.41,44,1546895713,TR,1546838295,1546872018,41.25,31.83
297,Fontioso,81,0.0,0.0,10.3,0,1546893000,ES,1546846957,1546880436,41.94,-3.74
298,Osh,78,0.0,0.0,2.0,44,1546893000,KG,1546828337,1546862305,40.54,72.8
299,Reading,46,-0.6,0.6,2.1,20,1546894500,US,1546863994,1546898060,40.34,-75.93
300,Ponce Inlet,65,22.0,24.4,3.6,20,1546894500,US,1546863523,1546900932,29.1,-80.94
301,Rianxo,80,5.0,7.0,2.6,0,1546893000,ES,1546848309,1546881523,42.65,-8.82
302,Cherven,100,-6.0,-6.0,3.41,90,1546893000,BG,1546840136,1546872969,43.62,26.02
303,Formentin,87,9.0,10.0,7.2,90,1546893000,FR,1546847580,1546877953,49.2,0.14
304,Biga,74,0.0,1.0,9.8,75,1546894200,TR,1546839216,1546873301,40.23,27.24
305,Baixo Guandu,41,30.08,30.08,2.76,24,1546895714,BR,1546848798,1546896474,-19.51,-41.02
306,San Mames de Campos,77,-4.85,-4.85,1.51,0,1546895715,ES,1546847234,1546880557,42.36,-4.57
307,Wermertshausen,93,4.0,4.0,6.7,75,1546892400,DE,1546845869,1546875459,50.7,8.9
308,Mons,93,6.0,10.0,8.7,75,1546894200,BE,1546846989,1546876715,50.45,3.95
309,Benasau,87,8.0,8.0,2.1,20,1546893000,ES,1546845573,1546880186,38.69,-0.34
310,Gislaveds Kommun,96,1.0,1.0,5.1,75,1546894200,SE,1546846944,1546872203,57.25,13.45
311,San Manuel,76,15.15,15.15,0.86,0,1546895771,PH,1546813620,1546854030,16.06,120.67
312,Makow,79,-5.0,-3.0,2.6,12,1546894800,PL,1546843543,1546872432,51.95,20.05
313,Weden,98,21.5,21.5,1.46,48,1546895772,ID,1546813452,1546858483,-6.98,111.73
314,Hornstein,92,-3.0,-1.0,2.6,75,1546894800,AT,1546843349,1546874357,47.88,16.44
315,Kamo,96,0.33,0.33,1.01,92,1546895772,JP,1546811943,1546846874,37.64,139.08
316,Allen County,86,7.0,11.0,7.2,90,1546895700,US,1546866302,1546900112,41.07,-85.01
317,Bairro Vista Alegre,52,34.0,39.0,3.6,20,1546894800,BR,1546849070,1546897525,-22.86,-43.78
318,Hujirt,42,-27.5,-27.5,1.36,0,1546895773,MN,1546823243,1546853747,48.88,101.24
319,Tarutyne,75,-4.58,-4.58,6.26,88,1546895773,UA,1546839917,1546871686,46.19,29.15
320,Peabiru,81,26.8,26.8,3.71,48,1546895538,BR,1546851001,1546899708,-23.91,-52.35
321,Abbadia San Salvatore,75,2.0,2.0,1.5,0,1546890900,IT,1546843436,1546876559,42.88,11.67
322,Savukoski,87,-8.43,-8.43,2.51,0,1546895774,FI,1546851157,1546860934,67.29,28.16
323,Le Mesnil-le-Roi,100,6.0,8.0,3.6,90,1546893000,FR,1546847038,1546877544,48.93,2.12
324,Settimo Milanese,100,-2.0,1.0,1.0,0,1546894200,IT,1546844585,1546876664,45.48,9.06
325,Sazgın,93,4.0,4.0,4.1,90,1546894200,TR,1546836220,1546871389,36.94,37.46
326,Kaizuka,65,2.0,7.0,3.6,20,1546894800,JP,1546812343,1546848259,34.43,135.36
327,Ocean Springs,56,19.2,21.7,3.1,20,1546894560,US,1546865589,1546902655,30.41,-88.83
328,Day County,78,1.7,4.4,3.1,1,1546894380,US,1546870140,1546902311,45.32,-97.58
329,Villamarzana,77,0.0,0.0,1.5,0,1546894200,IT,1546843855,1546876130,45.01,11.69
330,Mossbank,73,-4.0,-4.0,10.3,90,1546891200,CA,1546873226,1546903256,49.93,-105.97
331,Ingre,93,6.0,6.0,4.6,90,1546893000,FR,1546846864,1546877857,47.92,1.83
332,Union City,87,13.0,15.0,5.1,90,1546894560,US,1546866502,1546901854,36.42,-89.06
333,Pontvallain,87,6.0,8.0,2.6,90,1546893000,FR,1546847218,1546878291,47.75,0.19
334,Shumen,85,-4.58,-4.58,3.71,76,1546895746,BG,1546839847,1546872816,43.27,26.94
335,Département du Tarn-et-Garonne,97,3.0,4.0,5.7,90,1546893000,FR,1546846174,1546878862,44.0,1.17
336,Krestovo,65,-26.28,-26.28,1.46,12,1546895776,RU,1546822705,1546850740,53.32,108.63
337,Toral de los Vados,72,-3.5,-3.5,1.61,0,1546895776,ES,1546847799,1546881054,42.54,-6.78
338,Malbergweich,100,3.0,4.0,5.1,90,1546894560,DE,1546846260,1546876196,50.05,6.55
339,Ebene,86,-2.0,-2.0,1.0,75,1546894200,AT,1546843766,1546875260,46.82,13.69
340,Laskovo,82,-13.4,-13.4,4.51,48,1546895777,RU,1546839485,1546866883,54.34,40.06
341,Xingtian,98,6.9,6.9,1.06,76,1546895777,CN,1546815554,1546853347,27.5,118.07
342,Darchula,54,-6.68,-6.68,0.86,0,1546895777,NP,1546824865,1546862062,29.84,80.53
343,Timotes,61,18.75,18.75,0.76,36,1546895777,VE,1546858839,1546900712,8.98,-70.74
344,Dolni Bousov,100,0.0,3.0,1.5,90,1546892640,CZ,1546844304,1546874032,50.44,15.13
345,Baie-Mahault,69,26.0,26.0,4.1,90,1546894800,GP,1546857392,1546897768,16.27,-61.59
346,Göllersdorf,100,-2.0,-1.0,0.5,92,1546894200,AT,1546843571,1546874289,48.49,16.12
347,Yanfeng,94,21.0,21.0,2.0,75,1546891200,CN,1546816469,1546856036,19.95,110.56
348,Achen,94,1.0,2.0,5.1,90,1546894200,DE,1546844383,1546875321,48.03,12.28
349,Hammerstedt,86,4.0,4.0,9.3,75,1546894200,DE,1546845325,1546874779,50.95,11.45
350,Corby,75,8.0,8.0,6.7,75,1546894200,GB,1546848680,1546877258,52.49,-0.7
351,Surif,50,13.0,14.0,6.7,75,1546894200,PS,1546836021,1546872738,31.65,35.06
352,Port Moody,57,5.0,6.1,1.5,75,1546894500,CA,1546877105,1546907471,49.28,-122.83
353,Aratiba,71,26.5,26.5,7.46,88,1546895779,BR,1546850549,1546900134,-27.4,-52.3
354,Elkano,74,3.0,6.0,6.7,75,1546893000,ES,1546846599,1546879743,42.83,-1.55
355,Lendelede,87,8.0,10.0,9.8,75,1546894500,BE,1546847278,1546876767,50.89,3.24
356,Porqueira,79,7.0,7.0,3.1,0,1546893000,ES,1546848075,1546881436,42.26,-8.15
357,Sabana del Puerto,61,28.0,28.0,6.2,40,1546894800,DO,1546859813,1546899588,19.07,-70.42
358,Achau,92,-3.0,-1.0,2.6,75,1546894800,AT,1546843411,1546874324,48.08,16.38
359,Chetvërtyy Posëlok,71,-24.25,-24.25,2.21,0,1546895836,RU,1546823596,1546852148,52.48,103.84
360,Sindangasih,99,21.5,21.5,1.06,48,1546895836,ID,1546814145,1546859268,-7.44,108.65
361,Paulhan,80,2.0,4.0,4.6,0,1546893000,FR,1546845534,1546878403,43.54,3.46
362,Ellingstedt,87,7.0,8.0,8.2,75,1546894200,DE,1546846882,1546874203,54.47,9.41
363,Chuanpu,91,11.6,11.6,1.21,48,1546895836,CN,1546815561,1546854386,23.22,115.89
364,Arahuetes,74,-6.5,-6.5,1.06,0,1546895836,ES,1546846840,1546880610,41.14,-3.86
365,Mtskheta-Mtianeti,74,3.0,3.0,7.7,0,1546894800,GE,1546835384,1546868727,42.28,44.75
366,San Francisco,77,12.0,15.6,2.6,75,1546894380,US,1546874723,1546909652,37.78,-122.42
367,Santo Stefano Quisquina,80,-2.83,-2.83,1.36,0,1546895837,IT,1546842082,1546877037,37.63,13.49
368,Etterzhausen,99,2.0,2.2,3.1,90,1546894560,DE,1546844697,1546875151,49.03,11.98
369,Alto Barinas,60,30.05,30.05,5.11,8,1546895838,VE,1546858678,1546900629,8.59,-70.23
370,Glasnevin,87,6.0,6.0,7.2,40,1546894800,IE,1546850289,1546878324,53.38,-6.27
371,Tunggangri,95,26.33,26.33,0.96,68,1546895838,ID,1546813276,1546858548,-8.18,111.96
372,Barayong,100,23.4,23.4,5.06,56,1546895838,PH,1546812030,1546853539,10.75,125.0
373,Kalghatgi,73,15.7,15.7,1.61,0,1546895839,IN,1546824497,1546865095,15.18,74.97
374,Ersigen,80,1.0,3.0,2.1,90,1546894200,CH,1546845288,1546876663,47.09,7.6
375,Theresa,98,3.9,9.0,5.7,90,1546895700,US,1546867585,1546900482,43.52,-88.45
376,Ellenborough,91,7.58,7.58,9.41,88,1546895839,GB,1546850058,1546877221,54.71,-3.49
377,Onod,82,-10.25,-10.25,1.31,0,1546895839,HU,1546842302,1546873253,48.0,20.92
378,Nigüella,80,4.0,4.0,7.7,0,1546893000,ES,1546846351,1546879976,41.54,-1.52
379,Hujra,87,9.2,9.2,1.26,56,1546895840,PK,1546826595,1546863554,30.74,73.82
380,Kalandagan,98,17.85,17.85,1.01,0,1546895840,PH,1546811688,1546854014,6.68,124.72
381,Leibstadt,98,2.0,3.0,1.0,75,1546894200,CH,1546845263,1546876409,47.59,8.18
382,Goodings Grove,93,10.5,13.0,9.8,90,1546894500,US,1546867104,1546900712,41.63,-87.93
383,Sambidoplang,95,26.33,26.33,0.96,68,1546895840,ID,1546813280,1546858544,-8.14,111.96
384,Dalmine,86,-2.0,3.0,2.1,0,1546894200,IT,1546844491,1546876498,45.65,9.6
385,Manhuacu,43,27.98,27.98,1.71,0,1546895841,BR,1546848955,1546896801,-20.26,-42.03
386,Vega de Santa Maria,73,-7.6,-7.6,1.01,0,1546895841,ES,1546846974,1546880851,40.84,-4.64
387,Conde-sur-Huisne,100,6.0,8.0,4.46,90,1546893000,FR,1546847209,1546877983,48.38,0.85
388,Hof bei Straden,92,-3.0,-2.0,0.5,75,1546894200,AT,1546843233,1546874737,46.8,15.89
389,Erlenbach,93,4.0,4.1,4.6,75,1546894560,DE,1546845634,1546875766,49.67,8.75
390,Le Grand-Quevilly,93,8.0,9.0,5.1,90,1546893000,FR,1546847415,1546877681,49.41,1.05
391,Saint-Denis-Combarnazat,69,3.0,3.0,1.0,90,1546893000,FR,1546846062,1546877933,45.97,3.34
392,West Wendover,59,4.4,4.4,6.7,75,1546894560,US,1546873217,1546907150,40.74,-114.07
393,Stitar,84,-14.0,-8.0,1.0,0,1546894800,RS,1546841914,1546874278,44.79,19.59
394,Mettur,91,14.85,14.85,1.81,0,1546895843,IN,1546823467,1546864765,11.8,77.8
395,Corzes,92,-11.0,-4.0,1.5,75,1546894200,IT,1546844429,1546876009,46.63,10.75
396,Francica,42,7.0,11.0,3.1,20,1546890900,IT,1546841617,1546876249,38.62,16.1
397,Chalignat,69,3.0,3.0,1.0,90,1546893000,FR,1546846153,1546877938,46.17,3.14
398,Subottsi,89,-7.55,-7.55,5.26,92,1546895843,UA,1546839675,1546870311,48.65,32.52
399,Flekkefjord,100,6.23,6.23,8.11,92,1546895844,NO,1546849020,1546873388,58.3,6.66
400,Juvigny-sous-Andaine,93,7.0,10.0,3.1,90,1546893000,FR,1546847576,1546878269,48.55,-0.51
401,Ariguani,42,32.0,32.0,1.46,56,1546895844,CO,1546859749,1546901368,10.25,-74.0
402,Montoggio,49,9.0,9.0,2.6,20,1546894200,IT,1546844390,1546876868,44.52,9.04
403,Phumĭ Phlov,87,23.0,23.0,1.36,44,1546895844,KH,1546817089,1546858294,12.25,104.56
404,Ballwitz,96,3.98,3.98,7.96,92,1546895845,DE,1546845631,1546873609,53.46,13.25
405,Cabaret,62,29.0,29.0,4.6,20,1546894800,HT,1546860266,1546900186,18.4,-72.61
406,Kavrakirovo,87,-17.25,-17.25,0.96,8,1546895845,BG,1546840406,1546874066,41.43,23.17
407,Rokitno Szlacheckie,79,-7.0,-6.0,3.6,12,1546894800,PL,1546843270,1546873002,50.43,19.43
408,Venola,64,-1.0,0.0,1.5,0,1546894200,IT,1546843859,1546876409,44.34,11.1
409,Torrubia del Campo,64,-0.45,-0.45,2.66,0,1546895846,ES,1546846406,1546880611,39.9,-2.96
410,Inhambupe,56,27.75,27.75,5.56,64,1546895846,BR,1546848995,1546895002,-11.79,-38.36
411,Puebla de la Calzada,86,4.0,4.0,1.0,0,1546891200,ES,1546847116,1546881663,38.89,-6.63
412,Los Reyes,40,22.2,22.2,1.26,0,1546895901,MX,1546866591,1546906130,20.15,-98.16
413,Pigcawayan,99,22.4,22.4,2.86,0,1546895901,PH,1546811820,1546854027,7.28,124.42
414,Esternay,100,5.0,7.0,7.2,90,1546893000,FR,1546846644,1546877247,48.73,3.56
415,Huttenrode,93,6.0,6.0,6.2,90,1546894200,DE,1546845687,1546874681,51.77,10.9
416,Sévignacq-Meyracq,87,2.0,4.0,1.0,90,1546893000,FR,1546846379,1546879416,43.11,-0.41
417,Kartasura,96,21.83,21.83,1.26,80,1546895902,ID,1546813631,1546858779,-7.56,110.74
418,Chaen-mal,57,-8.0,-8.0,5.7,1,1546894800,KR,1546814291,1546849332,37.3,129.07
419,Vimeiro,81,7.0,7.0,1.5,0,1546891200,PT,1546847789,1546882138,39.48,-9.02
420,Yefimovo,83,-9.75,-9.75,4.46,68,1546895903,RU,1546839884,1546864235,58.3,44.75
421,Tirebolu,69,4.0,4.0,1.0,75,1546894200,TR,1546836575,1546870383,41.01,38.82
422,Riacho dos Machados,61,26.7,26.7,3.56,8,1546895903,BR,1546849674,1546896574,-16.01,-43.05
423,Drimmavohaun,97,6.75,6.75,3.71,68,1546895903,IE,1546850982,1546879043,53.34,-9.21
424,Thirsk,65,7.0,9.0,8.7,0,1546894200,GB,1546849381,1546876866,54.23,-1.34
425,Hickory Grove,82,3.0,8.3,4.1,90,1546894500,US,1546868021,1546901077,43.11,-90.6
426,Karsin,94,0.0,0.0,5.7,75,1546894800,PL,1546844649,1546872344,53.9,17.93
427,Mèze,80,2.0,4.0,4.6,0,1546893000,FR,1546845477,1546878393,43.42,3.6
428,Novospasskoye,86,-17.83,-17.83,2.51,44,1546895904,RU,1546837257,1546865418,53.15,47.75
429,Fortaleny,93,6.0,7.0,2.1,20,1546893000,ES,1546845650,1546880099,39.18,-0.32
430,Seethal,100,2.0,2.0,3.1,75,1546894200,DE,1546844220,1546875167,48.01,12.94
431,Padasono,98,19.75,19.75,0.86,80,1546895751,ID,1546814357,1546859464,-7.36,107.8
432,Vernon River,53,-6.0,-6.0,9.3,20,1546891200,CA,1546861990,1546893777,46.2,-62.83
433,Riggs Creek,88,20.6,20.6,3.91,92,1546895905,AU,1546801679,1546853993,-36.65,145.57
434,Kirtland,48,3.3,9.4,6.7,75,1546894500,US,1546865527,1546899135,41.63,-81.36
435,Carbajal de la Legua,68,-3.0,-3.0,1.21,0,1546893000,ES,1546847541,1546880751,42.66,-5.61
436,Hojo,69,4.4,4.4,2.6,75,1546894500,JP,1546812896,1546848944,33.98,132.78
437,Platanal,52,27.4,27.4,0.71,80,1546895906,CO,1546859423,1546901448,8.22,-73.49
438,Sydney,83,21.0,23.0,2.6,20,1546893000,AU,1546800768,1546852193,-33.85,151.22
439,Otoka,100,-12.0,-12.0,2.1,75,1546893000,BA,1546842019,1546874763,43.85,18.36
440,La Torre de Esteban Hambran,55,4.0,10.0,3.1,0,1546893000,ES,1546846756,1546880867,40.17,-4.22
441,Jiajuedibu,90,-17.9,-17.9,2.11,48,1546895907,CN,1546823066,1546859972,30.93,88.63
442,Hueypoxtla,23,23.0,23.0,5.1,75,1546893900,MX,1546866785,1546906377,19.91,-99.08
443,Muravlenko,71,-19.08,-19.08,6.41,36,1546895907,RU,1546835994,1546853845,63.79,74.5
444,Departamento de San Cosme,69,27.0,27.0,0.5,40,1546894800,AR,1546852047,1546901613,-27.33,-58.5
445,Lenzen,93,6.0,6.0,8.2,75,1546892400,DE,1546846053,1546874263,53.09,11.01
446,Coihueco,46,22.0,22.0,6.7,40,1546894800,CL,1546853891,1546906163,-36.63,-71.83
447,Puentes de Garcia Rodriguez,93,5.0,5.0,1.11,0,1546893000,ES,1546848230,1546881137,43.45,-7.85
448,Bauko,87,11.8,11.8,0.61,0,1546895908,PH,1546813671,1546853883,16.99,120.87
449,Sah,87,9.85,9.85,1.21,0,1546895909,IN,1546824319,1546862515,25.88,80.72
450,La Bouza,84,-2.9,-2.9,3.46,0,1546895909,ES,1546847492,1546881369,40.84,-6.8
451,North Bergen,26,-1.7,0.8,1.31,20,1546894380,US,1546863614,1546897518,40.8,-74.01
452,Reina,100,9.3,9.3,1.81,80,1546895909,IL,1546836109,1546872530,32.72,35.31
453,Veigy-Foncenex,69,3.0,3.0,0.5,90,1546894200,FR,1546845427,1546877167,46.27,6.26
454,Mount Forest,79,-4.0,-4.0,8.7,90,1546891560,CA,1546865825,1546898539,43.98,-80.74
455,Al Lubban ash Sharqiyah,50,13.0,14.0,6.7,75,1546894200,PS,1546836036,1546872638,32.07,35.24
456,Angasolka,48,-23.55,-23.55,1.86,0,1546895910,RU,1546823404,1546852383,51.75,103.75
457,La Celle-Saint-Avant,93,6.0,6.0,2.1,90,1546893000,FR,1546846952,1546878360,47.02,0.6
458,Port-Daniel,100,-6.75,-6.75,8.26,0,1546895910,CA,1546862952,1546893848,48.16,-64.98
459,Dobrodzien,79,-7.0,-7.0,3.6,32,1546894800,PL,1546843586,1546873157,50.73,18.45
460,Perote,43,22.25,22.25,1.16,0,1546895911,MX,1546866305,1546905974,19.56,-97.24
461,San Sebastian Tutla,33,25.2,25.2,0.76,0,1546895911,MX,1546866194,1546906257,17.75,-97.6
462,Kall,100,3.0,7.0,5.1,90,1546894560,DE,1546846387,1546876064,50.54,6.56
463,Bacnar,86,18.9,18.9,1.96,0,1546895966,PH,1546813679,1546854125,15.89,120.35
464,Semd,93,4.0,4.1,6.2,90,1546894560,DE,1546845652,1546875681,49.87,8.89
465,Merefa,78,-12.0,-12.0,3.0,0,1546894800,UA,1546839120,1546869167,49.82,36.06
466,Jász-Nagykun-Szolnok megye,92,-12.0,-12.0,2.1,0,1546893900,HU,1546842229,1546873528,47.25,20.5
467,Amboy,72,4.4,7.2,1.5,90,1546894380,US,1546876236,1546908166,45.9,-122.47
468,Etzenricht,95,2.2,2.2,3.1,90,1546894560,DE,1546844822,1546874974,49.63,12.09
469,Zhendu,93,5.1,5.1,0.66,92,1546895968,CN,1546816476,1546854092,28.2,114.6
470,Sadeng,100,21.48,21.48,0.91,36,1546895969,ID,1546813773,1546858815,-7.04,110.37
471,Tapan,96,20.48,20.48,1.06,24,1546895969,ID,1546813298,1546858540,-8.03,111.93
472,Smoky Lake,85,-13.6,-13.6,8.61,80,1546895729,CA,1546876001,1546903604,54.11,-112.47
473,Rowosari,100,21.48,21.48,0.91,36,1546895970,ID,1546813730,1546858824,-7.3,110.44
474,Ostwald,86,3.0,4.0,1.5,90,1546894200,FR,1546845601,1546876297,48.54,7.71
475,Odoyev,85,-13.9,-13.9,3.46,48,1546895971,RU,1546840162,1546867825,53.94,36.69
476,Ortenberg,93,4.0,4.1,6.2,90,1546894560,DE,1546845739,1546875517,50.35,9.05
477,Spedden,84,-13.58,-13.58,8.51,76,1546895971,CA,1546875834,1546903416,54.14,-111.73
478,Saint-Antoine-des-Laurentides,46,-12.0,-11.0,1.5,90,1546891200,CA,1546864573,1546896552,45.76,-73.99
479,Pandaria,66,11.45,11.45,3.11,0,1546895971,IN,1546823722,1546862780,22.22,81.41
480,Afak,84,4.2,4.2,1.31,0,1546895972,IQ,1546833632,1546870235,32.06,45.25
481,Ostfildern,80,2.0,2.0,3.6,75,1546894200,DE,1546845278,1546875881,48.73,9.25
482,Tourém,87,7.0,7.0,3.1,0,1546893000,ES,1546847950,1546881440,41.91,-7.9
483,Ballarat North,88,15.35,15.35,1.71,68,1546895972,AU,1546801937,1546854550,-37.54,143.87
484,Obshtina Dobrich-Selska,73,-3.0,-3.0,5.7,90,1546893000,BG,1546839727,1546872556,43.63,27.73
485,Berscheid,100,3.0,4.0,5.1,90,1546894560,DE,1546846318,1546876291,49.98,6.23
486,Gousse,84,4.0,4.0,1.81,90,1546893000,FR,1546846625,1546879405,43.77,-0.9
487,Cervillego de la Cruz,86,-2.0,0.0,0.5,0,1546893000,ES,1546847111,1546880863,41.19,-4.95
488,Ringleben,86,4.0,4.0,9.3,75,1546894200,DE,1546845486,1546874858,51.1,10.95
489,Gross Wittensee,87,7.0,8.0,8.2,75,1546894200,DE,1546846772,1546874140,54.4,9.77
490,Pruszków,79,-4.0,-3.0,3.6,20,1546894800,PL,1546843424,1546872191,52.16,20.8
491,Szeleveny,92,-12.0,-12.0,2.1,0,1546893900,HU,1546842199,1546873701,46.8,20.2
492,Cordovin,78,0.0,4.0,6.2,20,1546893000,ES,1546846818,1546880129,42.39,-2.81
493,Butungan,94,25.0,25.0,1.5,20,1546894800,ID,1546813294,1546858329,-7.0,112.38
494,Glemmen,100,0.0,0.0,3.1,90,1546894200,NO,1546848419,1546871934,59.22,10.94
495,Tassoumat,61,-4.43,-4.43,1.06,0,1546895974,MA,1546846000,1546882921,30.92,-6.93
496,Sasaima,63,18.0,18.0,5.7,75,1546894800,CO,1546859326,1546901996,4.96,-74.43
497,Cencenighe Agordino,67,-4.78,-4.78,0.71,8,1546895975,IT,1546844074,1546875778,46.35,11.97
498,La Rochefoucauld,93,2.0,6.0,1.0,90,1546893000,FR,1546846723,1546878694,45.74,0.38
499,Suurejõe,93,-0.8,-0.8,2.96,88,1546895975,EE,1546844741,1546868813,58.62,25.1
500,Heber,93,6.0,8.0,9.8,92,1546894200,DE,1546846326,1546874542,53.08,9.86
501,Amagunze,60,23.0,23.0,3.1,44,1546891200,NG,1546839757,1546882155,6.33,7.65
502,Vila Molica,41,33.0,33.0,1.0,40,1546891200,BR,1546849422,1546897860,-22.79,-45.21
503,Vorchdorf,86,3.0,3.0,6.7,75,1546894200,AT,1546843982,1546874934,48.0,13.92
504,Jasper,40,17.4,21.0,3.1,12,1546894560,US,1546865689,1546901812,33.83,-87.28
505,Peguerinos,55,4.0,10.0,3.1,0,1546893000,ES,1546846838,1546880789,40.63,-4.23
506,San Jose,88,19.93,19.93,1.66,44,1546895850,PH,1546813514,1546853982,15.79,120.99
507,Cervo,60,26.85,26.85,1.61,48,1546895977,BR,1546849740,1546898036,-22.19,-46.24
508,Eggerscheidt,93,6.0,8.0,7.7,90,1546894200,DE,1546846521,1546875772,51.32,6.89
509,Reichenbach/Vogtland,86,1.0,4.0,6.7,88,1546894200,DE,1546845031,1546874664,50.62,12.3
510,Bonita Springs,38,26.1,28.0,2.6,1,1546894560,US,1546863389,1546901488,26.35,-81.82
511,Castiglione Falletto,86,1.0,1.0,1.5,0,1546894200,IT,1546844665,1546877102,44.62,7.98
512,Großlangenfeld,100,3.0,4.0,5.1,90,1546894560,DE,1546846376,1546876224,50.22,6.25
513,Orsanco,86,4.0,6.0,1.0,90,1546893000,FR,1546846572,1546879540,43.29,-1.07
514,Frovi,93,2.0,2.0,3.1,75,1546894200,SE,1546847478,1546870748,59.47,15.37
515,Laguitas,95,17.65,17.65,1.16,88,1546896033,PH,1546811730,1546853776,8.09,125.13
516,Gibsonia,98,13.0,14.7,6.2,90,1546895700,US,1546866504,1546901469,37.65,-88.26
517,Nambucca Heads,83,23.0,23.0,1.5,75,1546894800,AU,1546800814,1546851300,-30.64,152.99
518,Doya,28,22.6,22.6,5.46,8,1546896034,NG,1546840959,1546882362,11.3,4.72
519,Tablado,70,8.0,8.0,2.1,90,1546893000,ES,1546847221,1546880255,43.12,-3.91
520,Rio Cuarto,42,28.0,28.0,4.1,0,1546894800,AR,1546852644,1546903821,-33.13,-64.35
521,Dolní Mokropsy,93,2.0,3.0,7.2,75,1546893000,CZ,1546844364,1546874356,49.94,14.33
522,Corona,57,13.7,16.7,2.6,75,1546894680,US,1546872966,1546909079,33.88,-117.57
523,Carbunesti,76,-5.53,-5.53,0.41,88,1546896035,RO,1546840419,1546872600,45.23,26.2
524,El Gas,23,21.0,23.0,5.1,75,1546894080,MX,1546866758,1546906447,19.47,-99.17
525,Wandsworth,81,10.0,11.0,8.2,75,1546894200,GB,1546848259,1546877434,51.46,-0.19
526,Sagbayan,88,25.0,25.0,2.1,90,1546894800,PH,1546812163,1546853843,9.91,124.09
527,Goldendale,65,6.0,7.2,2.86,20,1546894380,US,1546875823,1546907787,45.82,-120.82
528,Dapp,63,-13.4,-13.4,7.01,56,1546896036,CA,1546876425,1546903876,54.34,-113.92
529,Tarascon,60,4.0,5.0,7.7,0,1546893000,FR,1546845299,1546878062,43.81,4.66
530,Trange,87,7.0,8.0,2.6,90,1546893000,FR,1546847303,1546878244,48.03,0.11
531,Lapeer County,72,2.0,3.9,6.7,90,1546895760,US,1546866257,1546899303,43.13,-83.23
532,Lespourcy,86,2.0,4.0,1.0,90,1546893000,FR,1546846365,1546879305,43.36,-0.15
533,Hammerstein,93,3.0,7.0,3.6,75,1546894200,DE,1546846181,1546875891,50.48,7.35
534,Suko Dua,100,24.83,24.83,0.76,44,1546896038,ID,1546812981,1546858252,-8.17,113.19
535,Gallicano,100,-1.0,1.0,1.0,0,1546894200,IT,1546843961,1546876624,44.06,10.44
536,Maria da Fé,41,33.0,33.0,1.0,40,1546891200,BR,1546849520,1546897844,-22.31,-45.38
537,Taberno,100,8.83,8.83,3.66,0,1546896038,ES,1546845793,1546880801,37.47,-2.08
538,Matranovak,66,-14.78,-14.78,1.16,8,1546896038,HU,1546842537,1546873469,48.04,19.98
539,Cabezon de Valderaduey,76,-3.0,0.0,3.6,0,1546893000,ES,1546847341,1546880734,42.17,-5.16
540,Hoyo de Manzanares,55,4.0,10.0,3.1,0,1546893000,ES,1546846760,1546880714,40.62,-3.91
541,Bacesti,73,-7.0,-4.0,5.7,90,1546893000,RO,1546840523,1546872002,46.85,27.23
542,Vahdat,96,0.4,0.4,1.11,92,1546896039,TJ,1546828905,1546863552,38.55,69.02
543,Cunter,92,-11.0,-11.0,1.5,75,1546894200,CH,1546844702,1546876292,46.61,9.59
544,Nong Kung Si,73,22.0,22.0,2.6,12,1546894800,TH,1546817852,1546858138,16.65,103.3
545,Guggenhausen,94,0.0,2.0,4.1,48,1546894200,DE,1546845026,1546876031,47.89,9.46
546,Kollow,93,6.0,8.0,7.7,75,1546894200,DE,1546846301,1546874280,53.46,10.46
547,Buzancais,93,5.0,6.0,2.1,90,1546893000,FR,1546846725,1546878192,46.89,1.42
548,Affoltern / Hasenbueel,98,2.0,2.0,1.0,90,1546894200,CH,1546845125,1546876418,47.27,8.45
549,Schönewörde,93,6.0,7.0,6.2,90,1546894200,DE,1546846004,1546874494,52.63,10.63
550,Berehove,100,-12.0,-12.0,3.1,0,1546893000,UA,1546841937,1546872788,48.21,22.65
551,Scarmagno,86,1.0,1.0,1.5,0,1546894200,IT,1546844856,1546876978,45.38,7.84
552,Haihui,100,3.45,3.45,1.91,64,1546896041,CN,1546816301,1546853572,29.54,116.05
553,Apensen,93,6.0,8.0,9.8,92,1546894200,DE,1546846496,1546874488,53.44,9.62
554,Porto Velho,66,29.65,29.65,1.96,24,1546895870,BR,1546855432,1546900815,-8.75,-63.87
555,Klingendorf,93,6.0,6.0,4.6,75,1546892400,DE,1546846055,1546873700,53.98,12.18
556,Caatiba,44,27.0,27.0,7.2,20,1546891200,BR,1546849151,1546895830,-14.98,-40.41
557,Wurzen,86,4.0,5.0,8.7,90,1546894200,DE,1546845132,1546874353,51.37,12.74
558,Hinnerup,93,7.0,7.0,3.6,44,1546894200,DK,1546847368,1546873402,56.27,10.07
559,Augsfeld,99,2.6,3.0,5.1,90,1546894560,DE,1546845292,1546875243,50.02,10.55
560,Lakhnadon,80,9.35,9.35,2.46,0,1546896042,IN,1546824197,1546863169,22.6,79.61
561,Montenero Val Cocchiara,52,-13.05,-13.05,0.41,0,1546896043,IT,1546842643,1546876199,41.72,14.07
562,Makarau,68,22.0,22.0,4.1,44,1546894800,NZ,1546794753,1546847038,-36.55,174.48
563,Uhart-Cize,86,3.0,6.0,1.0,90,1546893000,FR,1546846590,1546879608,43.16,-1.25
564,Lagunilla del Jubera,78,3.0,4.0,6.2,20,1546893000,ES,1546846689,1546880023,42.33,-2.32
565,Potrerillos,58,29.0,29.0,6.7,40,1546894800,HN,1546863612,1546904209,15.23,-87.96
566,Spassk-Dalniy,68,-23.08,-23.08,2.36,0,1546896099,RU,1546814704,1546847122,44.6,132.82
567,Elm Grove,85,6.5,11.1,6.2,75,1546895700,US,1546867403,1546900486,43.04,-88.08
568,Davison County,64,5.6,5.6,4.1,1,1546894380,US,1546869949,1546902789,43.67,-98.18
569,Waha,88,25.0,27.0,4.1,75,1546894800,MY,1546816156,1546859455,1.76,104.08
570,Bolesławiec,93,0.25,0.25,3.11,92,1546896099,PL,1546844422,1546873704,51.26,15.57
571,Bürglen,74,2.0,2.0,1.0,90,1546894200,CH,1546844986,1546876455,46.88,8.66
572,Horcajo de Santiago,78,-1.9,-1.9,1.21,0,1546896100,ES,1546846406,1546880631,39.84,-3.0
573,Mölkau,86,4.0,5.0,8.7,90,1546894200,DE,1546845193,1546874436,51.33,12.44
574,Tinchebray,81,10.0,10.0,6.2,90,1546893000,FR,1546847680,1546878271,48.76,-0.73
575,Shani,36,15.7,15.7,2.91,12,1546896100,NG,1546839896,1546881485,10.38,8.76
576,Koyasu,59,-3.0,3.0,3.1,75,1546894800,JP,1546811554,1546847176,35.42,139.26
577,Wentworthville,73,22.0,25.0,2.6,20,1546894800,AU,1546800834,1546852247,-33.81,150.97
578,West Summit,48,-7.8,-4.4,1.16,1,1546894560,US,1546863736,1546896945,42.7,-73.07
579,Meudt,75,3.0,6.0,4.1,90,1546894560,DE,1546846052,1546875756,50.49,7.9
580,Antigua,69,27.0,27.0,4.6,75,1546894800,CO,1546859331,1546902159,4.16,-74.78
581,Carbury,87,6.0,6.0,7.2,40,1546894800,IE,1546850448,1546878496,53.36,-6.96
582,Berryville,70,18.5,22.0,5.7,75,1546894500,US,1546867410,1546904023,32.09,-95.47
583,Carbonera,88,4.0,5.0,1.0,75,1546894200,IT,1546843852,1546875846,45.68,12.29
584,Beechmont,62,5.5,8.8,3.6,40,1546895700,US,1546863612,1546898738,37.14,-76.55
585,Waldzell,96,1.0,1.0,6.7,90,1546893780,DE,1546845492,1546875485,49.94,9.63
586,Weißenohe,98,1.2,3.0,4.1,75,1546894560,DE,1546845024,1546875176,49.63,11.25
587,Kolej,92,-5.0,-4.0,4.1,75,1546894200,TR,1546837814,1546872005,39.92,32.86
588,Villa Bisono,61,26.0,28.0,6.2,40,1546894800,DO,1546859977,1546899645,19.56,-70.88
589,Farcasesti,72,-14.65,-14.65,0.76,0,1546896103,RO,1546841064,1546873395,44.87,23.2
590,Olofstroem,93,3.0,5.0,4.6,75,1546894200,SE,1546846301,1546872326,56.28,14.53
591,Arica,73,21.0,23.0,3.1,90,1546894800,CL,1546855949,1546903391,-18.48,-70.32
592,Bramstedtlund,93,7.0,8.0,13.9,40,1546894200,DE,1546847087,1546874157,54.84,9.08
593,Zabia Wola,79,-4.0,-3.0,3.6,20,1546894800,PL,1546843413,1546872255,52.03,20.69
594,Darliston,70,29.0,29.0,7.2,20,1546894800,JM,1546861537,1546901493,18.24,-77.98
595,Sturgis,41,6.0,8.9,8.2,75,1546895700,US,1546871376,1546903922,44.41,-103.51
596,Altdorf,80,2.0,4.0,3.6,75,1546894200,DE,1546845314,1546875965,48.63,9.0
597,Torrejon el Rubio,75,-1.95,-1.95,1.21,0,1546896105,ES,1546847116,1546881366,39.77,-6.01
598,Tolomango,100,22.45,22.45,0.96,8,1546896105,ID,1546811646,1546856985,-8.51,118.61
599,Adersleben,93,6.0,6.0,6.2,90,1546894200,DE,1546845651,1546874578,51.89,11.19
600,Castellnou de Seana,78,0.0,1.0,0.5,0,1546893000,ES,1546845774,1546879358,41.65,0.97
601,Old Orchard Mobile Home Park,75,3.8,8.9,5.1,1,1546895700,US,1546868541,1546902012,42.01,-93.63
602,Carinaro,65,4.0,9.0,2.1,20,1546894200,IT,1546842473,1546876296,40.98,14.22
603,Barra,46,29.5,29.5,3.41,32,1546896106,BR,1546850216,1546896077,-11.09,-43.14
604,Pryor,87,16.1,17.8,3.1,90,1546894560,US,1546866912,1546902640,35.18,-91.55
605,Balaruc-le-Vieux,60,2.0,5.0,3.1,0,1546893000,FR,1546845465,1546878366,43.46,3.68
606,Eboli,92,-2.0,-2.0,4.1,90,1546890900,IT,1546842207,1546876158,40.62,15.06
607,Pedregal,40,29.73,29.73,3.81,0,1546896107,AR,1546853709,1546904835,-32.96,-68.68
608,Creedmoor,59,23.2,24.4,4.1,75,1546894560,US,1546867682,1546904835,30.09,-97.73
609,Diessenhofen,100,1.0,2.0,1.0,75,1546894200,CH,1546845150,1546876249,47.69,8.75
610,Tapuio,78,28.0,28.0,5.1,0,1546894800,BR,1546849811,1546894228,-3.92,-38.44
611,Nārāyanpur,87,10.93,10.93,1.16,0,1546896108,BD,1546821560,1546860228,23.9,91.23
612,Romanovo,85,-10.85,-10.85,5.86,64,1546896108,RU,1546840179,1546866033,56.49,40.39
613,Ayia Galini,93,4.0,5.0,4.1,75,1546894200,GR,1546839005,1546874740,35.1,24.68
614,Tlemcen,64,2.0,4.0,1.5,0,1546894800,DZ,1546845212,1546881016,34.88,-1.32
615,Faenza,71,0.0,1.0,1.5,0,1546894200,IT,1546843662,1546876232,44.29,11.88
616,Kubangeceng,98,19.75,19.75,0.86,80,1546896109,ID,1546814284,1546859379,-7.3,108.13
617,Vaulion,80,-3.0,3.0,1.0,90,1546894200,CH,1546845488,1546877043,46.69,6.39
